     3.04           OBSERVATION DATA    M                   RINEX VERSION / TYPE
sbf2rin-16.2.0                          20260417 131309 UTC PGM / RUN BY / DATE 
V3RJ                                                        MARKER NAME         
Unknown                                                     MARKER NUMBER       
Unknown             ESA-EPO/ESOC                            OBSERVER / AGENCY   
3001289             SEPT POLARX4        2.9.6-patch2        REC # / TYPE / VERS 
03433               JAV_GRANT-G3T   NONE                    ANT # / TYPE        
  4072488.7388   617543.2071  4853616.0142                  APPROX POSITION XYZ 
        0.0000        0.0000        0.0000                  ANTENNA: DELTA H/E/N
G   19 X1  C1C L1C D1C S1C C1W S1W C2W L2W D2W S2W C2L L2L  SYS / # / OBS TYPES 
       D2L S2L C5Q L5Q D5Q S5Q                              SYS / # / OBS TYPES 
E   17 X1  C1C L1C D1C S1C C5Q L5Q D5Q S5Q C7Q L7Q D7Q S7Q  SYS / # / OBS TYPES 
       C8Q L8Q D8Q S8Q                                      SYS / # / OBS TYPES 
S    5 X1  C1C L1C D1C S1C                                  SYS / # / OBS TYPES 
R   13 X1  C1C L1C D1C S1C C2C L2C D2C S2C C3Q L3Q D3Q S3Q  SYS / # / OBS TYPES 
C    9 X1  C2I L2I D2I S2I C7I L7I D7I S7I                  SYS / # / OBS TYPES 
SEPTENTRIO RECEIVERS OUTPUT ALIGNED CARRIER PHASES.         COMMENT             
NO FURTHER PHASE SHIFT APPLIED IN THE RINEX ENCODER.        COMMENT             
G L1C                                                       SYS / PHASE SHIFT   
G L2W                                                       SYS / PHASE SHIFT   
G L2L  0.00000                                              SYS / PHASE SHIFT   
G L5Q  0.00000                                              SYS / PHASE SHIFT   
E L1C  0.00000                                              SYS / PHASE SHIFT   
E L5Q  0.00000                                              SYS / PHASE SHIFT   
E L7Q  0.00000                                              SYS / PHASE SHIFT   
E L8Q  0.00000                                              SYS / PHASE SHIFT   
S L1C                                                       SYS / PHASE SHIFT   
R L1C                                                       SYS / PHASE SHIFT   
R L2C                                                       SYS / PHASE SHIFT   
R L3Q  0.00000                                              SYS / PHASE SHIFT   
C L2I                                                       SYS / PHASE SHIFT   
C L7I                                                       SYS / PHASE SHIFT   
     1.000                                                  INTERVAL            
  2026     4    16    10    54    7.0000000     GPS         TIME OF FIRST OBS   
  2026     4    16    11     9    7.0000000     GPS         TIME OF LAST OBS    
    23                                                      # OF SATELLITES     
 C1C    0.000 C2C    0.000                                  GLONASS COD/PHS/BIS 
DBHZ                                                        SIGNAL STRENGTH UNIT
    18                                                      LEAP SECONDS        
  4 R09 -2 R15  0 R16 -1 R18 -3                             GLONASS SLOT / FRQ #
                                                            END OF HEADER       
> 2026 04 16 10 54  7.0000000  0 18
C12        21.000    22137428.241 7 115275403.93907      1331.830 7        47.500    22137428.192 8  89138247.15608      1029.855 8        52.500
C24        23.000    23381238.147 8 121752250.78308     -2122.669 8        48.500
C25         2.000    23765017.144 7 123750680.05207      1172.953 7        44.750
C26        30.000    26116675.685 7 135996361.13907     -3475.407 7        43.250
C34         7.000    23550905.042 7 122635730.76107      2398.040 7        43.750
E02        26.000    24330355.743 6 127856888.21906     -1918.467 6        37.250    24330361.284 6  95477555.38306     -1432.421 6        37.500    24330358.225 6  97968267.91806     -1469.881 6        37.500    24330359.486 6  96722911.15906     -1451.172 6        40.500
E34        29.000    24173477.645 8 127032482.60108      1668.334 8        48.750    24173482.232 7  94861939.87307      1245.825 7        46.500    24173478.615 7  97336582.51907      1278.318 7        45.750    24173480.050 8  96099258.70008      1262.069 8        49.250
G07        34.000    25265220.130 6 132769630.63606      1479.049 6        41.000    25265219.741 6        37.000    25265223.157 6 103456853.25706      1152.506 6        37.000    25265222.607 6 103456864.24306      1152.506 6        41.250
G08        14.000    23475014.344 5 123362041.22105      3226.533 5        34.250    23475013.835 5        30.000    23475020.179 5  96126278.16305      2514.175 5        30.000    23475020.904 6  96126289.15806      2514.186 6        39.750    23475022.308 8  92121032.53908      2409.344 8        50.250
G16         1.000    20387331.054 8 107136141.40208      -567.258 8        49.000    20387330.384 6        39.500    20387328.460 6  83482706.60206      -442.019 6        39.500
G26        13.000    21892057.988 7 115043535.73507     -2726.533 7        45.250    21892057.555 7        42.000    21892062.611 7  89644329.74307     -2124.569 7        42.000    21892061.408 6  89644339.75106     -2124.668 6        41.750    21892061.556 8  85909151.76908     -2036.007 8        48.250
G27        12.000    21067227.113 7 110709035.24007      2075.026 7        47.750    21067226.720 8        48.500    21067231.106 8  86266782.28108      1616.901 8        48.500    21067230.735 7  86266786.28707      1616.859 7        45.500    21067228.329 8  82672336.81708      1549.499 8        48.750
R09         8.000    23432119.016 6 125126220.31906      3974.322 6        39.000    23432122.133 5  97320406.09605      3090.917 5        33.500    23432105.498 5  93951606.42905      2984.076 5        35.000
R15        11.000    20854262.866 7 111438831.19207     -3412.812 7        47.500    20854264.592 7  86674669.02707     -2654.427 7        45.000
R16         4.000    20003857.933 7 106857028.63507       819.638 7        46.000    20003863.925 7  83111047.71807       637.501 7        46.500    20003848.588 7  80205909.92607       615.245 7        46.750
R18        22.000    20177409.357 7 107708382.99807      1936.610 7        47.250    20177415.041 7  83773206.28807      1506.320 7        47.000
S21         5.000    38585046.529 6 202765798.50906         4.439 6        39.500
S36        28.000    38464156.951 6 202130544.57806         0.060 6        41.000
> 2026 04 16 10 54  8.0000000  0 18
C12        21.000    22137172.594 7 115274072.30507      1331.459 7        46.250    22137172.424 8  89137217.45008      1029.529 8        51.750
C24        23.000    23381645.878 7 121754373.71107     -2123.147 7        47.250
C25         2.000    23764792.163 7 123749507.32307      1172.426 7        43.750
C26        30.000    26117343.217 7 135999836.71507     -3475.542 7        42.000
C34         7.000    23550444.353 7 122633332.85707      2397.732 7        42.250
E02        26.000    24330720.337 6 127858806.80306     -1918.757 6        36.000    24330726.548 6  95478988.11506     -1433.032 6        36.750    24330723.092 6  97969737.99206     -1470.115 6        36.750    24330724.737 6  96724362.56206     -1451.582 6        39.750
E34        29.000    24173160.428 7 127030814.46907      1667.958 7        47.750    24173164.801 7  94860694.19007      1245.428 7        46.000    24173161.067 7  97335304.34207      1277.978 7        45.000    24173162.619 8  96097996.76808      1261.715 8        48.500
G07        34.000    25264939.728 6 132768151.90306      1478.566 6        40.000    25264939.339 6        36.500    25264941.762 6 103455700.99506      1152.127 6        36.500    25264941.552 6 103455711.98606      1151.957 6        40.750
G08        14.000    23474400.095 5 123358814.98805      3226.139 5        32.750    23474399.590 4        29.750    23474406.221 4  96123764.21304      2513.876 4        29.750    23474405.631 6  96123775.19206      2513.961 6        39.250    23474408.336 8  92118623.33008      2409.074 8        49.500
G16         1.000    20387439.468 7 107136709.01507      -567.989 7        47.500    20387438.793 6        39.250    20387436.468 6  83483148.89606      -442.583 6        39.250
G26        13.000    21892577.689 7 115046262.54107     -2727.097 7        44.000    21892577.256 6        41.500    21892581.476 6  89646454.52206     -2125.009 6        41.500    21892580.533 6  89646464.51906     -2124.966 6        41.250    21892580.376 7  85911188.01107     -2036.490 7        47.500
G27        12.000    21066832.036 7 110706960.42207      2074.696 7        46.500    21066831.647 8        48.500    21066836.258 8  86265165.53908      1616.647 8        48.500    21066835.484 7  86265169.54007      1616.643 7        45.000    21066833.507 8  82670787.44008      1549.271 8        48.000
R09         8.000    23431374.191 6 125122246.27306      3973.822 6        38.000    23431377.397 5  97317315.20005      3090.465 5        33.250    23431361.331 5  93948622.49705      2983.862 5        33.750
R15        11.000    20854901.150 7 111442244.36507     -3413.523 7        46.250    20854903.480 7  86677323.70907     -2654.994 7        44.500
R16         4.000    20003704.668 7 106856209.49207       818.657 7        44.750    20003710.549 7  83110410.60307       636.719 7        46.000    20003695.305 7  80205295.08907       614.423 7        46.000
R18        22.000    20177046.682 7 107706446.67207      1936.055 7        46.250    20177052.008 7  83771700.26207      1505.769 7        46.500
S21         5.000    38585046.636 6 202765794.02106         4.517 6        38.500
S36        28.000    38464154.303 6 202130544.50006         0.071 6        39.500
> 2026 04 16 10 54  9.0000000  0 18
C12        21.000    22136917.019 7 115272741.01907      1330.596 7        47.750    22136916.634 8  89136188.01608      1028.891 8        52.250
C24        23.000    23382053.659 8 121756497.10508     -2124.225 8        48.500
C25         2.000    23764566.994 7 123748335.17107      1171.376 7        45.000
C26        30.000    26118010.611 7 136003312.34307     -3476.220 7        43.500
C34         7.000    23549983.811 7 122630935.19907      2396.913 7        43.750
E02        26.000    24331085.414 6 127860725.75906     -1919.672 6        37.500    24331092.108 6  95480421.09006     -1433.702 6        37.500    24331088.356 6  97971208.36006     -1470.894 6        37.500    24331089.854 6  96725814.23306     -1452.263 6        40.500
E34        29.000    24172842.951 8 127029146.72908      1666.996 8        49.000    24172847.392 7  94859448.79807      1244.808 7        46.500    24172844.002 7  97334026.46407      1277.216 7        45.750    24172845.227 8  96096735.13208      1261.030 8        49.000
G07        34.000    25264657.823 6 132766673.72506      1477.242 6        41.500    25264657.439 6        36.500    25264660.470 6 103454549.16706      1151.096 6        36.500    25264659.961 6 103454560.15606      1151.145 6        41.250
G08        14.000    23473785.949 5 123355588.91905      3225.444 5        34.500    23473785.449 5        30.000    23473792.299 5  96121250.39405      2513.333 5        30.000    23473792.326 6  96121261.38406      2513.269 6        39.750    23473794.338 8  92116214.25208      2408.601 8        50.250
G16         1.000    20387546.837 8 107137277.33508      -569.257 8        49.000    20387546.162 6        39.250    20387544.619 6  83483591.74206      -443.577 6        39.250
G26        13.000    21893096.008 7 115048989.80807     -2728.086 7        45.250    21893095.579 6        41.500    21893100.421 6  89648579.66206     -2125.783 6        41.500    21893098.946 6  89648589.66106     -2125.790 6        41.750    21893099.245 8  85913224.60608     -2037.178 8        48.250
G27        12.000    21066437.433 8 110704886.03308      2073.581 8        48.250    21066437.040 8        48.500    21066441.485 8  86263549.13308      1615.771 8        48.500    21066441.011 7  86263553.12807      1615.933 7        45.500    21066438.592 8  82669238.38608      1548.513 8        48.750
R09         8.000    23430629.599 6 125118272.62106      3972.951 6        39.000    23430633.431 5  97314224.55705      3090.276 5        33.750    23430617.181 5  93945638.86205      2983.107 5        35.000
R15        11.000    20855539.912 7 111445658.17207     -3414.721 7        47.500    20855542.788 7  86679978.89407     -2655.910 7        45.250
R16         4.000    20003551.354 7 106855391.32007       817.122 7        46.250    20003557.239 7  83109774.25507       635.522 7        46.500    20003542.125 7  80204680.97907       613.257 7        46.750
R18        22.000    20176684.118 7 107704510.86307      1934.959 7        47.750    20176689.328 7  83770194.63307      1504.968 7        47.000
S21         5.000    38585044.221 6 202765789.58206         3.858 6        40.000
S36        28.000    38464155.587 6 202130544.44906        -0.486 6        41.250
> 2026 04 16 10 54 10.0000000  0 18
C12        21.000    22136661.385 8 115271409.92408      1330.927 8        48.000    22136660.831 8  89135158.73008      1029.124 8        52.250
C24        23.000    23382461.439 8 121758620.81708     -2123.976 8        48.750
C25         2.000    23764341.844 7 123747163.42707      1171.536 7        45.000
C26        30.000    26118677.970 7 136006787.89907     -3475.657 7        43.750
C34         7.000    23549523.364 7 122628537.60607      2397.565 7        44.000
E02        26.000    24331450.710 6 127862644.94106     -1919.446 6        37.750    24331456.849 6  95481854.24706     -1433.396 6        37.750    24331453.487 6  97972678.89906     -1470.683 6        37.750    24331455.043 6  96727266.07906     -1452.039 6        40.750
E34        29.000    24172525.408 8 127027479.21608      1667.386 8        49.250    24172530.085 7  94858203.58007      1245.089 7        46.500    24172526.468 7  97332748.75907      1277.562 7        45.750    24172527.894 8  96095473.67208      1261.316 8        49.250
G07        34.000    25264377.028 6 132765195.89006      1477.722 6        41.750    25264376.639 6        36.750    25264379.241 6 103453397.61006      1151.467 6        36.750    25264378.973 6 103453408.61306      1151.296 6        41.250
G08        14.000    23473172.438 5 123352362.83405      3226.240 5        34.500    23473171.942 5        30.250    23473178.381 5  96118736.56105      2513.950 5        30.250    23473179.092 6  96118747.57206      2513.747 6        39.750    23473180.639 8  92113805.19008      2408.958 8        50.250
G16         1.000    20387655.291 8 107137846.20208      -569.222 8        49.000    20387654.621 6        39.500    20387652.868 6  83484035.01406      -443.550 6        39.500
G26        13.000    21893614.788 7 115051717.39007     -2727.822 7        45.250    21893614.355 6        41.750    21893619.411 6  89650705.05006     -2125.573 6        41.750    21893618.785 6  89650715.04106     -2125.530 6        41.750    21893618.468 8  85915261.43208     -2036.995 8        48.250
G27        12.000    21066042.925 8 110702811.89008      2073.925 8        48.000    21066042.536 8        48.750    21066046.766 8  86261932.91908      1616.046 8        48.750    21066046.372 7  86261936.92807      1616.015 7        45.500    21066044.016 8  82667689.51808      1548.688 8        48.750
R09         8.000    23429885.941 6 125114299.18706      3973.253 6        39.250    23429889.443 5  97311134.13305      3089.993 5        34.000    23429873.103 5  93942655.39205      2983.369 5        34.500
R15        11.000    20856178.272 7 111449072.43407     -3414.589 7        47.500    20856181.626 7  86682634.43607     -2655.796 7        45.250
R16         4.000    20003398.420 7 106854573.94207       816.909 7        46.250    20003404.050 7  83109138.51807       635.351 7        46.750    20003389.097 7  80204067.45807       613.144 7        46.750
R18        22.000    20176321.796 8 107702575.40708      1935.228 8        48.000    20176326.764 7  83768689.27707      1505.159 7        47.000
S21         5.000    38585043.068 6 202765784.99306         4.500 6        40.000
S36        28.000    38464154.549 6 202130544.27706         0.156 6        41.250
> 2026 04 16 10 54 11.0000000  0 18
C12        21.000    22136405.769 8 115270079.41408      1330.586 8        48.000    22136405.219 8  89134129.89308      1028.924 8        52.250
C24        23.000    23382869.381 8 121760745.25008     -2124.395 8        48.750
C25         2.000    23764116.930 7 123745992.50607      1170.933 7        45.000
C26        30.000    26119345.588 7 136010263.75707     -3475.569 7        43.750
C34         7.000    23549063.091 7 122626140.50707      2397.311 7        44.000
E02        26.000    24331815.822 6 127864564.73406     -1919.805 6        37.500    24331821.922 6  95483287.84606     -1433.517 6        37.750    24331818.782 6  97974149.92406     -1470.893 6        37.500    24331820.343 6  96728718.39006     -1452.205 6        40.500
E34        29.000    24172208.473 8 127025812.33808      1666.948 8        49.250    24172212.757 7  94856958.83707      1244.773 7        46.500    24172209.300 7  97331471.54407      1277.241 7        45.750    24172210.767 8  96094212.69408      1261.011 8        49.000
G07        34.000    25264095.619 7 132763718.86307      1477.002 7        42.000    25264095.230 6        36.750    25264098.173 6 103452246.68006      1150.915 6        36.750    25264098.034 6 103452257.67406      1151.021 6        41.250
G08        14.000    23472556.740 5 123349137.21705      3225.913 5        34.750    23472556.244 5        30.250    23472564.557 5  96116223.09505      2513.700 5        30.250    23472563.971 6  96116234.09306      2513.708 6        39.750    23472566.775 8  92111396.43608      2408.960 8        50.250
G16         1.000    20387763.867 8 107138416.01008      -569.871 8        49.250    20387763.192 6        39.500    20387761.291 6  83484479.01906      -444.054 6        39.500
G26        13.000    21894134.444 7 115054445.68207     -2728.243 7        45.250    21894134.011 6        41.750    21894138.544 6  89652830.98806     -2125.899 6        41.750    21894137.838 6  89652840.98506     -2125.939 6        41.750    21894137.645 8  85917298.79608     -2037.337 8        48.250
G27        12.000    21065648.161 8 110700738.40108      2073.531 8        48.000    21065647.772 8        48.750    21065652.167 8  86260317.21308      1615.738 8        48.750    21065651.859 7  86260321.21407      1615.750 7        45.250    21065649.395 8  82666141.13208      1548.452 8        48.750
R09         8.000    23429142.431 6 125110326.36606      3972.894 6        39.250    23429144.144 5  97308044.14305      3090.250 5        34.000    23429129.119 5  93939672.40205      2983.175 5        34.500
R15        11.000    20856817.254 7 111452487.55007     -3415.170 7        47.250    20856820.746 7  86685290.63107     -2656.234 7        45.250
R16         4.000    20003245.397 7 106853757.74707       816.034 7        46.000    20003251.206 7  83108503.70407       634.607 7        46.750    20003236.297 7  80203454.83907       612.459 7        46.500
R18        22.000    20175959.277 8 107700640.73008      1934.692 8        48.000    20175964.442 7  83767184.52607      1504.769 7        46.750
S21         5.000    38585043.300 6 202765780.71706         4.429 6        40.000
S36        28.000    38464154.299 6 202130544.39006         0.147 6        41.000
> 2026 04 16 10 54 12.0000000  0 18
C12        21.000    22136150.448 8 115268749.23008      1330.277 8        48.000    22136149.715 8  89133101.31308      1028.655 8        52.250
C24        23.000    23383277.412 8 121762870.12708     -2124.846 8        48.750
C25         2.000    23763892.025 7 123744822.13007      1170.344 7        45.000
C26        30.000    26120013.201 7 136013739.66607     -3475.664 7        43.750
C34         7.000    23548602.822 7 122623743.62307      2396.888 7        43.750
E02        26.000    24332181.511 6 127866484.87206     -1920.062 6        37.500    24332187.410 6  95484721.71506     -1433.646 6        37.500    24332184.181 6  97975621.17106     -1471.172 6        37.750    24332185.697 6  96730170.94906     -1452.408 6        40.750
E34        29.000    24171891.314 8 127024145.81908      1666.655 8        49.250    24171895.692 7  94855714.36007      1244.538 7        46.500    24171892.101 7  97330194.59707      1277.083 7        45.750    24171893.599 8  96092951.98208      1260.784 8        49.250
G07        34.000    25263815.182 7 132762242.33207      1476.600 7        42.000    25263814.793 6        36.750    25263817.185 6 103451096.13506      1150.605 6        36.750    25263816.228 6 103451107.12106      1150.565 6        41.250
G08        14.000    23471944.580 5 123345911.73605      3225.693 5        34.750    23471944.089 5        30.250    23471950.737 5  96113709.73005      2513.527 5        30.250    23471951.435 6  96113720.72406      2513.445 6        39.750    23471952.933 8  92108987.80108      2408.755 8        50.250
G16         1.000    20387872.406 8 107138986.50408      -570.558 8        49.250    20387871.736 6        39.750    20387869.835 6  83484923.55706      -444.588 6        39.750
G26        13.000    21894653.224 7 115057174.41507     -2728.765 7        45.250    21894652.791 6        41.750    21894657.762 6  89654957.27106     -2126.307 6        41.750    21894656.685 6  89654967.26406     -2126.342 6        41.750    21894656.930 8  85919336.48208     -2037.716 8        48.250
G27        12.000    21065254.045 7 110698665.30607      2073.167 7        47.750    21065253.652 8        48.750    21065257.645 8  86258701.81308      1615.453 8        48.750    21065257.140 7  86258705.81607      1615.512 7        45.500    21065254.792 8  82664593.04408      1548.121 8        48.750
R09         8.000    23428398.085 6 125106353.92006      3972.714 6        39.500    23428400.723 5  97304954.48305      3089.729 5        34.250    23428385.216 5  93936689.65305      2983.021 5        34.750
R15        11.000    20857456.347 7 111455903.24407     -3415.727 7        47.500    20857459.938 7  86687947.28607     -2656.669 7        45.500
R16         4.000    20003092.950 7 106852942.46007       815.139 7        46.250    20003098.857 7  83107869.58707       634.026 7        46.750    20003083.717 7  80202842.88007       611.825 7        46.500
R18        22.000    20175596.825 8 107698706.55908      1934.157 8        48.000    20175602.254 7  83765680.17307      1504.435 7        46.750
S21         5.000    38585041.766 6 202765776.44806         4.446 6        40.250
S36        28.000    38464153.311 6 202130544.50706         0.263 6        41.000
> 2026 04 16 10 54 13.0000000  0 18
C12        21.000    22135895.043 8 115267419.10308      1329.614 8        48.000    22135894.193 8  89132072.77708      1028.112 8        52.250
C24        23.000    23383685.484 8 121764995.17208     -2125.666 8        48.500
C25         2.000    23763667.335 7 123743652.01207      1169.534 7        44.750
C26        30.000    26120680.658 7 136017215.34207     -3476.055 7        43.500
C34         7.000    23548142.464 7 122621346.65907      2396.548 7        43.750
E02        26.000    24332547.111 6 127868405.07506     -1920.753 6        37.750    24332553.215 6  95486155.63406     -1434.354 6        37.500    24332549.821 6  97977092.50406     -1471.629 6        38.000    24332551.203 6  96731623.57406     -1452.976 6        40.750
E34        29.000    24171574.151 8 127022479.39108      1665.857 8        49.250    24171578.743 7  94854469.94307      1244.025 7        46.500    24171575.161 7  97328917.72507      1276.409 7        45.750    24171576.463 8  96091691.33808      1260.199 8        49.250
G07        34.000    25263533.742 7 132760766.02007      1475.688 7        42.000    25263533.353 6        36.750    25263536.242 6 103449945.76206      1149.887 6        36.750    25263535.437 6 103449956.75706      1149.838 6        41.250
G08        14.000    23471331.426 5 123342686.10905      3225.368 5        34.750    23471330.944 5        30.500    23471336.900 5  96111196.25705      2513.266 5        30.500    23471336.694 6  96111207.25206      2513.188 6        40.000    23471339.126 8  92106579.06508      2408.389 8        50.250
G16         1.000    20387980.772 8 107139557.40308      -571.593 8        49.250    20387980.097 6        39.750    20387978.464 6  83485368.41506      -445.399 6        39.750
G26        13.000    21895172.441 7 115059903.31207     -2729.504 7        45.250    21895172.008 6        41.750    21895177.007 6  89657083.68106     -2126.888 6        41.750    21895175.827 6  89657093.67806     -2126.864 6        41.750    21895176.148 8  85921374.29508     -2038.255 8        48.250
G27        12.000    21064859.134 7 110696592.33207      2072.392 7        47.750    21064858.745 8        48.750    21064863.145 8  86257086.50808      1614.852 8        48.750    21064862.890 7  86257090.51507      1614.813 7        45.500    21064860.364 8  82663045.04508      1547.543 8        48.750
R09         8.000    23427653.913 6 125102381.50706      3971.963 6        39.500    23427657.790 5  97301864.83505      3089.212 5        34.250    23427641.178 5  93933706.95605      2982.113 5        34.750
R15        11.000    20858095.717 7 111459319.27407     -3416.715 7        47.250    20858099.178 7  86690604.19607     -2657.434 7        45.500
R16         4.000    20002940.482 7 106852127.77507       813.843 7        46.000    20002946.505 7  83107235.94907       632.953 7        46.750    20002931.221 7  80202231.38607       610.902 7        46.500
R18        22.000    20175234.494 8 107696772.60608      1933.377 8        48.250    20175239.766 7  83764175.99107      1503.738 7        46.750
S21         5.000    38585042.996 6 202765771.92906         4.127 6        40.000
S36        28.000    38464154.111 6 202130544.32806        -0.129 6        41.000
> 2026 04 16 10 54 14.0000000  0 18
C12        21.000    22135639.829 8 115266089.23108      1329.936 8        48.000    22135638.703 8  89131044.44008      1028.350 8        52.250
C24        23.000    23384093.577 8 121767120.61208     -2125.517 8        48.250
C25         2.000    23763442.806 7 123742482.38207      1169.593 7        44.500
C26        30.000    26121348.199 7 136020691.00607     -3475.441 7        43.500
C34         7.000    23547682.062 7 122618949.86207      2396.961 7        43.500
E02        26.000    24332912.300 6 127870325.56306     -1920.347 6        37.500    24332918.574 6  95487589.77006     -1434.151 6        37.750    24332915.484 6  97978564.07806     -1471.729 6        37.750    24332916.570 6  96733076.42906     -1452.912 6        40.750
E34        29.000    24171257.059 8 127020813.26008      1666.175 8        49.250    24171261.535 7  94853225.75907      1244.232 7        46.500    24171257.909 7  97327641.08007      1276.649 7        45.750    24171259.447 8  96090430.92208      1260.456 8        49.250
G07        34.000    25263253.108 6 132759290.16506      1475.770 6        41.750    25263252.719 6        36.750    25263255.393 6 103448795.74506      1149.953 6        36.750    25263254.624 6 103448806.74306      1149.937 6        41.000
G08        14.000    23470717.191 5 123339460.58105      3225.848 5        35.250    23470716.704 5        30.500    23470723.098 5  96108682.86105      2513.647 5        30.500    23470722.566 6  96108693.88206      2513.491 6        39.500    23470725.360 8  92104170.40508      2408.700 8        50.250
G16         1.000    20388090.286 8 107140128.92008      -571.629 8        49.250    20388089.616 6        39.500    20388087.214 6  83485813.75106      -445.421 6        39.500
G26        13.000    21895692.259 7 115062632.59207     -2729.329 7        45.250    21895691.826 6        41.750    21895696.319 6  89659210.39306     -2126.746 6        41.750    21895695.174 6  89659220.38506     -2126.660 6        41.750    21895695.438 8  85923412.39408     -2038.203 8        48.000
G27        12.000    21064465.081 7 110694519.67807      2072.683 7        47.500    21064464.692 8        48.750    21064468.703 8  86255471.45508      1615.078 8        48.750    21064468.019 7  86255475.46007      1615.068 7        45.250    21064466.002 8  82661497.29108      1547.699 8        48.750
R09         8.000    23426910.242 6 125098409.40506      3971.981 6        39.250    23426913.931 5  97298775.42105      3089.233 5        34.250    23426897.458 5  93930724.46605      2982.560 5        34.500
R15        11.000    20858734.949 7 111462735.86707     -3416.729 7        47.000    20858738.325 7  86693261.54807     -2657.457 7        45.250
R16         4.000    20002788.066 7 106851313.92707       813.681 7        46.000    20002794.152 7  83106602.96607       632.716 7        46.750    20002778.913 7  80201620.53307       610.599 7        46.500
R18        22.000    20174872.369 7 107694839.10307      1933.431 7        47.750    20174877.739 7  83762672.15107      1503.783 7        46.500
S21         5.000    38585042.965 6 202765767.33806         4.821 6        39.750
S36        28.000    38464155.958 6 202130544.13006         0.454 6        40.750
> 2026 04 16 10 54 15.0000000  0 18
C12        21.000    22135384.638 8 115264759.54108      1329.958 8        48.000    22135383.221 8  89130016.23508      1028.418 8        52.250
C24        23.000    23384501.738 8 121769246.34108     -2125.532 8        48.250
C25         2.000    23763218.371 7 123741313.16307      1169.354 7        44.750
C26        30.000    26122015.732 7 136024166.56707     -3475.231 7        43.500
C34         7.000    23547221.632 7 122616553.12007      2397.170 7        43.500
E02        26.000    24333277.761 6 127872246.26806     -1920.501 6        37.500    24333283.632 6  95489024.05306     -1434.024 6        37.750    24333281.052 6  97980035.77606     -1471.627 6        38.000    24333282.072 6  96734529.42106     -1452.830 6        40.750
E34        29.000    24170940.383 8 127019147.34708      1666.169 8        49.000    24170944.591 7  94851981.73207      1244.207 7        46.500    24170940.723 7  97326364.60607      1276.587 7        45.750    24170942.418 8  96089170.67108      1260.418 8        49.000
G07        34.000    25262972.428 7 132757814.66507      1475.614 7        42.000    25262972.039 6        36.500    25262974.606 6 103447646.00406      1149.826 6        36.500    25262973.815 6 103447656.99506      1149.873 6        40.750
G08        14.000    23470103.935 5 123336235.09505      3225.815 5        35.250    23470103.453 5        30.750    23470109.318 5  96106169.49605      2513.629 5        30.750    23470110.061 6  96106180.48806      2513.566 6        39.750    23470111.545 8  92101761.73608      2408.958 8        50.500
G16         1.000    20388198.817 8 107140700.96908      -571.967 8        49.250    20388198.147 6        39.500    20388196.067 6  83486259.50206      -445.688 6        39.500
G26        13.000    21896211.651 7 115065362.16307     -2729.404 7        45.000    21896211.222 6        41.750    21896215.684 6  89661337.33006     -2126.805 6        41.750    21896215.376 6  89661347.32606     -2126.843 6        41.500    21896214.830 8  85925450.70908     -2038.227 8        48.250
G27        12.000    21064070.635 7 110692447.27407      2072.696 7        47.750    21064070.246 8        48.750    21064074.311 8  86253856.59508      1615.093 8        48.750    21064073.948 7  86253860.59907      1615.092 7        45.250    21064071.511 8  82659949.71008      1547.794 8        48.750
R09         8.000    23426166.558 6 125094437.50206      3972.098 6        39.250    23426169.527 5  97295686.17905      3089.276 5        34.500    23426153.626 5  93927742.17105      2982.612 5        34.500
R15        11.000    20859374.364 7 111466152.91907     -3416.927 7        47.000    20859377.928 7  86695919.25607     -2657.566 7        45.250
R16         4.000    20002635.763 7 106850500.87107       812.985 7        46.000    20002641.934 7  83105970.57507       632.318 7        46.500    20002626.748 7  80201010.25207       610.236 7        46.750
R18        22.000    20174510.083 8 107692905.95408      1933.302 8        48.000    20174515.516 7  83761168.59307      1503.681 7        46.500
S21         5.000    38585040.930 6 202765762.64106         5.036 6        39.750
S36        28.000    38464159.468 6 202130543.83606         0.755 6        41.000
> 2026 04 16 10 54 16.0000000  0 18
C12        21.000    22135129.595 8 115263430.61108      1328.085 8        48.250    22135127.923 8  89128988.61908      1026.948 8        52.250
C24        23.000    23384910.118 8 121771372.96608     -2127.533 8        48.250
C25         2.000    23762994.061 7 123740144.91107      1167.329 7        44.500
C26        30.000    26122683.323 7 136027642.61207     -3476.725 7        43.500
C34         7.000    23546761.404 7 122614157.04407      2395.357 7        43.250
E02        26.000    24333643.652 6 127874167.76406     -1922.375 6        37.250    24333649.787 6  95490458.92606     -1435.424 6        38.000    24333646.084 6  97981508.06406     -1472.904 6        38.000    24333647.779 6  96735983.00206     -1454.108 6        40.750
E34        29.000    24170623.426 8 127017482.23808      1664.258 8        49.000    24170627.741 7  94850738.31007      1242.788 7        46.750    24170624.007 7  97325088.74207      1275.166 7        45.500    24170625.505 8  96087911.02908      1258.980 8        49.250
G07        34.000    25262691.606 7 132756340.12007      1473.583 7        42.000    25262691.217 6        36.500    25262693.994 6 103446497.01206      1148.244 6        36.500    25262693.462 6 103446508.00706      1148.206 6        40.750
G08        14.000    23469490.070 5 123333010.16305      3224.293 5        35.500    23469489.588 5        30.750    23469495.642 5  96103656.56205      2512.440 5        30.750    23469495.266 6  96103667.56406      2512.479 6        39.750    23469497.855 8  92099353.52408      2407.729 8        50.500
G16         1.000    20388307.656 8 107141274.13408      -574.123 8        49.500    20388306.986 6        39.500    20388305.143 6  83486706.12706      -447.370 6        39.500
G26        13.000    21896730.659 7 115068092.61607     -2731.364 7        45.000    21896730.226 6        41.500    21896735.224 6  89663464.95306     -2128.335 6        41.500    21896734.290 7  89663474.95207     -2128.288 7        42.000    21896734.460 8  85927489.68208     -2039.645 8        48.250
G27        12.000    21063676.332 7 110690375.70607      2070.736 7        47.750    21063675.943 8        48.750    21063680.079 8  86252242.38708      1613.563 8        48.750    21063679.408 7  86252246.39107      1613.563 7        45.500    21063677.293 8  82658402.76208      1546.294 8        48.750
R09         8.000    23425423.038 6 125090466.39406      3970.171 6        39.500    23425426.343 5  97292597.53005      3088.079 5        34.750    23425409.883 5  93924760.42505      2981.032 5        34.500
R15        11.000    20860014.102 7 111469571.02007     -3419.108 7        47.000    20860017.648 7  86698577.76707     -2659.238 7        45.500
R16         4.000    20002484.000 7 106849689.18207       810.517 7        46.000    20002489.979 7  83105339.25607       630.423 7        46.750    20002474.744 7  80200401.00607       608.312 7        46.500
R18        22.000    20174148.208 8 107690973.78008      1931.237 8        48.000    20174153.569 7  83759665.79907      1502.049 7        46.500
S21         5.000    38585039.553 6 202765758.41706         3.530 6        39.750
S36        28.000    38464159.146 6 202130544.03906        -0.896 6        41.250
> 2026 04 16 10 54 17.0000000  0 18
C12        21.000    22134874.619 8 115262102.13908      1327.760 8        48.500    22134872.875 8  89127961.35708      1026.755 8        52.250
C24        23.000    23385318.498 8 121773500.15708     -2127.961 8        48.500
C25         2.000    23762769.889 7 123738977.32907      1166.851 7        45.000
C26        30.000    26123350.775 7 136031118.82107     -3476.750 7        43.500
C34         7.000    23546301.301 7 122611761.29607      2395.121 7        43.500
E02        26.000    24334009.180 6 127876089.70206     -1922.646 6        37.750    24334015.230 6  95491894.15506     -1435.681 6        37.750    24334012.113 6  97982980.73306     -1472.993 6        37.750    24334013.468 6  96737436.95106     -1454.324 6        40.750
E34        29.000    24170306.710 8 127015817.61408      1664.002 8        49.250    24170310.908 7  94849495.25307      1242.545 7        46.750    24170307.206 7  97323813.25007      1275.024 7        45.750    24170308.802 8  96086651.75408      1258.801 8        49.250
G07        34.000    25262410.770 7 132754866.20407      1473.196 7        42.250    25262410.381 6        36.500    25262413.516 6 103445348.50606      1147.946 6        36.500    25262413.538 6 103445359.50106      1147.923 6        41.000
G08        14.000    23468875.768 6 123329785.52706      3224.052 6        36.000    23468875.286 5        31.000    23468881.992 5  96101143.86005      2512.248 5        31.000    23468882.359 6  96101154.85606      2512.332 6        39.750    23468884.201 8  92096945.51208      2407.619 8        50.500
G16         1.000    20388416.894 8 107141848.12108      -574.886 8        49.750    20388416.224 6        39.500    20388414.372 6  83487153.38906      -447.967 6        39.500
G26        13.000    21897250.297 7 115070823.64507     -2731.714 7        45.250    21897249.864 6        41.500    21897254.876 6  89665593.02706     -2128.609 6        41.500    21897253.816 7  89665603.02007     -2128.659 7        42.000    21897254.179 8  85929529.08308     -2039.904 8        48.000
G27        12.000    21063282.301 8 110688304.65008      2070.383 8        48.000    21063281.912 8        48.750    21063285.946 8  86250628.57708      1613.283 8        48.750    21063285.516 7  86250632.58307      1613.286 7        45.500    21063283.227 8  82656856.19408      1546.062 8        49.000
R09         8.000    23424679.300 6 125086495.74606      3969.885 6        40.000    23424683.459 5  97289509.23805      3087.709 5        35.000    23424666.239 5  93921779.05005      2980.893 5        34.500
R15        11.000    20860653.839 7 111472989.85107     -3419.601 7        47.250    20860657.537 7  86701236.86307     -2659.733 7        45.750
R16         4.000    20002332.515 7 106848878.54707       809.623 7        46.250    20002338.297 7  83104708.76607       629.687 7        46.500    20002322.991 7  80199792.54807       607.786 7        46.750
R18        22.000    20173786.520 8 107689042.23408      1930.746 8        48.250    20173791.622 7  83758163.48507      1501.692 7        46.750
S21         5.000    38585037.800 6 202765754.32606         3.698 6        40.250
S36        28.000    38464158.332 6 202130544.42806        -0.761 6        41.500
> 2026 04 16 10 54 18.0000000  0 18
C12        21.000    22134619.562 8 115260773.20208      1328.585 8        48.250    22134617.666 8  89126933.74208      1027.332 8        52.250
C24        23.000    23385726.913 8 121775627.00708     -2127.277 8        48.000
C25         2.000    23762545.517 7 123737809.51707      1167.371 7        44.500
C26        30.000    26124018.227 7 136034594.30207     -3475.757 7        43.000
C34         7.000    23545840.978 7 122609364.98907      2395.994 7        43.000
E02        26.000    24334374.337 6 127878011.23806     -1921.928 6        37.250    24334381.223 6  95493329.07806     -1435.274 6        37.750    24334377.364 6  97984453.06706     -1472.507 6        37.750    24334379.198 6  96738890.57906     -1453.870 6        40.750
E34        29.000    24169989.824 8 127014152.57208      1664.670 8        49.000    24169994.192 7  94848251.88007      1243.073 7        46.750    24169990.409 7  97322537.43807      1275.559 7        45.500    24169991.948 8  96085392.16108      1259.323 8        49.250
G07        34.000    25262131.517 7 132753392.00607      1473.753 7        42.000    25262131.128 6        36.500    25262132.980 6 103444199.77806      1148.378 6        36.500    25262131.580 6 103444210.77506      1148.422 6        40.500
G08        14.000    23468262.011 6 123326560.23906      3225.106 6        36.000    23468261.529 5        31.250    23468268.222 5  96098630.65005      2513.067 5        31.250    23468267.292 6  96098641.65406      2513.032 6        39.250    23468270.368 8  92094537.03808      2408.192 8        50.250
G16         1.000    20388526.287 8 107142421.98708      -574.396 8        49.250    20388525.617 6        39.750    20388523.569 6  83487600.55906      -447.582 6        39.750
G26        13.000    21897770.240 7 115073554.31807     -2731.065 7        44.750    21897769.807 6        41.500    21897774.456 6  89667720.82106     -2128.106 6        41.500    21897774.412 6  89667730.81606     -2128.134 6        41.750    21897773.853 8  85931568.22408     -2039.483 8        48.250
G27        12.000    21062887.752 7 110686233.18707      2071.120 7        47.500    21062887.363 8        48.500    21062891.736 8  86249014.44908      1613.857 8        48.500    21062891.414 7  86249018.46007      1613.878 7        45.250    21062889.040 8  82655309.33008      1546.515 8        48.750
R09         8.000    23423935.710 6 125082524.63506      3970.679 6        39.500    23423940.159 5  97286420.59305      3088.343 5        34.750    23423922.603 5  93918797.31905      2981.423 5        34.250
R15        11.000    20861293.755 7 111476408.45907     -3419.105 7        46.750    20861297.185 7  86703895.76707     -2659.216 7        45.750
R16         4.000    20002180.815 7 106848068.02307       809.883 7        46.000    20002186.374 7  83104078.36407       629.912 7        46.250    20002171.233 7  80199184.18407       607.898 7        46.500
R18        22.000    20173424.569 8 107687110.35708      1931.392 8        48.000    20173429.721 7  83756660.91407      1502.247 7        46.500
S21         5.000    38585036.678 6 202765749.49806         4.689 6        39.750
S36        28.000    38464159.705 6 202130544.05806         0.142 6        41.000
> 2026 04 16 10 54 19.0000000  0 18
C12        21.000    22134364.554 8 115259444.45108      1328.946 8        48.500    22134362.448 8  89125906.26508      1027.590 8        52.250
C24        23.000    23386135.432 8 121777754.17208     -2127.004 8        48.250
C25         2.000    23762321.417 7 123736642.10407      1167.466 7        44.750
C26        30.000    26124685.680 7 136038069.67207     -3475.005 7        43.500
C34         7.000    23545380.468 7 122606968.74007      2396.584 7        43.250
E02        26.000    24334740.930 6 127879932.96006     -1921.487 6        37.750    24334747.007 6  95494764.12706     -1434.993 6        37.750    24334743.157 6  97985925.57206     -1472.356 6        37.750    24334744.847 6  96740344.35806     -1453.687 6        40.750
E34        29.000    24169673.094 8 127012487.74608      1664.954 8        49.500    24169677.302 7  94847008.66207      1243.326 7        46.750    24169673.367 7  97321261.79907      1275.780 7        45.750    24169675.102 8  96084132.73408      1259.553 8        49.250
G07        34.000    25261850.248 7 132751918.17507      1473.905 7        42.250    25261849.859 6        36.500    25261852.510 6 103443051.33806      1148.498 6        36.500    25261851.661 6 103443062.33906      1148.514 6        41.000
G08        14.000    23467647.543 6 123323334.96706      3225.518 6        36.750    23467647.061 5        31.250    23467654.474 5  96096117.45705      2513.386 5        31.250    23467655.328 6  96096128.46706      2513.309 6        39.750    23467656.776 8  92092128.55608      2408.666 8        50.500
G16         1.000    20388635.395 8 107142996.39508      -574.401 8        49.500    20388634.725 6        39.750    20388632.877 6  83488048.15006      -447.586 6        39.750
G26        13.000    21898289.842 7 115076285.29607     -2730.803 7        45.000    21898289.409 6        41.500    21898294.095 6  89669848.85406     -2127.896 6        41.500    21898293.075 7  89669858.86007     -2127.946 7        42.000    21898293.518 8  85933607.58508     -2039.270 8        48.250
G27        12.000    21062493.869 8 110684161.98808      2071.377 8        48.000    21062493.480 8        48.500    21062497.576 8  86247400.52808      1614.061 8        48.500    21062497.679 7  86247404.53307      1614.070 7        45.500    21062494.929 8  82653762.64808      1546.812 8        48.750
R09         8.000    23423191.887 6 125078553.70406      3971.164 6        40.000    23423196.372 5  97283332.09905      3088.761 5        35.250    23423179.017 5  93915815.72905      2981.984 5        34.250
R15        11.000    20861933.492 7 111479827.49307     -3418.964 7        47.250    20861937.329 7  86706555.02407     -2659.263 7        46.250
R16         4.000    20002029.455 7 106847258.26807       809.670 7        46.250    20002034.763 7  83103448.55507       629.718 7        46.500    20002019.627 7  80198576.38907       607.718 7        46.750
R18        22.000    20173062.802 8 107685178.82008      1931.640 8        48.500    20173067.998 7  83755158.61507      1502.334 7        46.750
S21         5.000    38585037.849 6 202765744.55306         5.346 6        40.000
S36        28.000    38464157.836 6 202130543.53006         1.039 6        41.250
> 2026 04 16 10 54 20.0000000  0 18
C12        21.000    22134109.591 8 115258116.16208      1328.251 8        48.000    22134107.364 8  89124879.14108      1027.084 8        52.000
C24        23.000    23386543.991 7 121779881.90907     -2127.838 7        47.750
C25         2.000    23762097.478 7 123735475.37407      1166.572 7        44.250
C26        30.000    26125353.163 7 136041545.21907     -3475.434 7        42.750
C34         7.000    23544920.146 7 122604572.85007      2395.931 7        42.500
E02        26.000    24335106.131 6 127881855.16906     -1922.192 6        37.000    24335112.589 6  95496199.53806     -1435.556 6        37.500    24335109.128 6  97987398.41806     -1472.857 6        37.250    24335110.594 6  96741798.48706     -1454.246 6        40.500
E34        29.000    24169356.423 8 127010823.41408      1664.287 8        48.750    24169360.470 7  94845765.81807      1242.817 7        46.500    24169356.758 7  97319986.53107      1275.172 7        45.250    24169358.413 8  96082873.67808      1258.982 8        48.750
G07        34.000    25261570.628 6 132750444.98906      1472.999 6        41.500    25261570.235 6        36.500    25261572.167 6 103441903.40306      1147.789 6        36.500    25261571.751 6 103441914.38206      1147.873 6        40.250
G08        14.000    23467036.294 6 123320109.97606      3224.961 6        36.250    23467035.807 5        31.250    23467040.775 5  96093604.48005      2512.957 5        31.250    23467040.278 6  96093615.47306      2513.151 6        39.500    23467043.064 8  92089720.28208      2408.255 8        50.000
G16         1.000    20388745.048 8 107143571.61908      -575.492 8        49.000    20388744.373 6        39.750    20388742.334 6  83488496.37606      -448.438 6        39.750
G26        13.000    21898809.937 7 115079016.85207     -2731.661 7        44.500    21898809.508 6        41.500    21898813.845 6  89671977.34106     -2128.564 6        41.500    21898814.006 6  89671987.33006     -2128.549 6        41.750    21898813.259 8  85935647.38108     -2039.861 8        48.000
G27        12.000    21062100.040 7 110682091.30207      2070.518 7        47.250    21062099.651 8        48.500    21062103.510 8  86245787.00608      1613.390 8        48.500    21062103.345 7  86245791.00707      1613.485 7        45.250    21062100.961 8  82652216.35608      1546.189 8        48.500
R09         8.000    23422448.515 6 125074583.28506      3970.335 6        39.250    23422452.821 5  97280244.02205      3088.063 5        35.000    23422435.471 5  93912834.51805      2981.323 5        34.000
R15        11.000    20862573.471 7 111483247.25007     -3419.958 7        46.750    20862577.468 7  86709214.83107     -2659.984 7        45.750
R16         4.000    20001877.800 7 106846449.55707       808.333 7        46.000    20001883.332 7  83102819.55707       628.703 7        46.000    20001868.245 7  80197969.37207       606.789 7        46.500
R18        22.000    20172701.222 8 107683247.94008      1930.732 8        48.000    20172706.279 7  83753656.81507      1501.719 7        46.250
S21         5.000    38585038.583 6 202765739.74806         4.966 6        39.500
S36        28.000    38464156.977 6 202130543.15406         0.450 6        40.750
> 2026 04 16 10 54 21.0000000  0 18
C12        21.000    22133854.655 8 115256788.51008      1327.174 8        48.500    22133852.347 8  89123852.52408      1026.188 8        52.000
C24        23.000    23386952.742 8 121782010.40908     -2129.094 8        48.000
C25         2.000    23761873.754 7 123734309.50807      1165.358 7        44.750
C26        30.000    26126020.718 7 136045021.14807     -3476.291 7        43.250
C34         7.000    23544460.070 7 122602177.47507      2395.004 7        43.000
E02        26.000    24335472.881 6 127883778.04606     -1923.324 6        37.250    24335478.443 6  95497635.44506     -1436.440 6        37.750    24335475.429 6  97988871.80406     -1473.945 6        37.500    24335476.476 6  96743253.13106     -1455.174 6        40.750
E34        29.000    24169039.774 8 127009159.76708      1663.115 8        49.250    24169043.812 7  94844523.48507      1241.937 7        46.500    24169040.060 7  97318711.79007      1274.336 7        45.500    24169041.848 8  96081615.13908      1258.161 8        49.000
G07        34.000    25261289.891 7 132748972.63107      1471.663 7        42.000    25261289.502 6        36.250    25261291.988 6 103440756.11106      1146.750 6        36.250    25261292.091 6 103440767.09506      1146.941 6        40.000
G08        14.000    23466422.121 6 123316885.45606      3224.127 6        36.500    23466421.634 5        31.250    23466427.147 5  96091091.86805      2512.306 5        31.250    23466426.830 6  96091102.88306      2512.253 6        39.000    23466429.504 8  92087312.37108      2407.599 8        50.000
G16         1.000    20388854.724 8 107144147.84108      -576.894 8        49.500    20388854.054 6        39.500    20388851.978 6  83488945.38006      -449.526 6        39.500
G26        13.000    21899329.217 7 115081749.17307     -2732.816 7        45.000    21899328.788 6        41.250    21899333.738 6  89674106.42106     -2129.462 6        41.250    21899333.555 6  89674116.40506     -2129.414 6        41.500    21899332.906 8  85937687.75208     -2040.770 8        48.000
G27        12.000    21061706.028 7 110680021.31807      2069.445 7        47.500    21061705.644 8        48.250    21061709.578 8  86244174.03308      1612.554 8        48.250    21061709.167 7  86244178.04507      1612.473 7        44.750    21061706.989 8  82650670.59408      1545.323 8        48.500
R09         8.000    23421705.390 6 125070613.53406      3969.260 6        39.750    23421709.258 5  97277156.42605      3087.489 5        34.500    23421691.997 5  93909853.83705      2980.220 5        34.250
R15        11.000    20863213.789 7 111486667.95807     -3421.423 7        47.250    20863218.162 7  86711875.38107     -2661.064 7        45.500
R16         4.000    20001726.691 7 106845642.07707       806.680 7        46.250    20001732.133 7  83102191.52707       627.348 7        45.500    20001717.131 7  80197363.29207       605.476 7        46.500
R18        22.000    20172339.687 8 107681317.90608      1929.390 8        48.500    20172344.878 7  83752155.68707      1500.590 7        45.750
S21         5.000    38585034.961 6 202765735.27606         4.093 6        39.750
S36        28.000    38464157.648 6 202130543.08106        -0.305 6        41.000
> 2026 04 16 10 54 22.0000000  0 18
C12        21.000    22133599.898 8 115255461.59208      1326.555 8        48.500    22133597.528 8  89122826.46208      1025.795 8        52.250
C24        23.000    23387361.622 8 121784139.76408     -2129.730 8        48.250
C25         2.000    23761650.065 7 123733144.59807      1164.532 7        44.500
C26        30.000    26126688.341 7 136048497.50307     -3476.556 7        43.500
C34         7.000    23543999.998 7 122599782.72707      2394.524 7        43.000
E02        26.000    24335838.498 6 127885701.68606     -1923.915 6        37.500    24335844.705 6  95499071.93006     -1436.821 6        38.000    24335840.739 6  97990345.74906     -1474.270 6        38.000    24335842.536 6  96744708.34406     -1455.506 6        41.000
E34        29.000    24168723.478 8 127007496.88808      1662.517 8        49.250    24168727.485 7  94843281.72707      1241.471 7        46.750    24168723.871 7  97317437.63007      1273.955 7        45.750    24168725.401 8  96080357.18108      1257.711 8        49.250
G07        34.000    25261009.391 6 132747501.18006      1471.039 6        41.750    25261008.998 6        36.000    25261011.971 6 103439609.52606      1146.263 6        36.000    25261011.094 6 103439620.51906      1146.242 6        40.500
G08        14.000    23465808.592 6 123313661.49506      3223.899 6        37.250    23465808.105 5        31.500    23465813.623 5  96088579.69405      2512.129 5        31.500    23465813.650 6  96088590.70306      2512.014 6        39.500    23465815.926 8  92084904.88508      2407.280 8        50.250
G16         1.000    20388964.462 8 107144725.15508      -577.770 8        49.250    20388963.792 6        39.500    20388961.832 6  83489395.23306      -450.212 6        39.500
G26        13.000    21899848.994 7 115084482.33407     -2733.461 7        44.750    21899848.565 6        41.250    21899853.797 6  89676236.15306     -2129.966 6        41.250    21899853.658 7  89676246.15007     -2130.076 7        42.000    21899853.211 8  85939728.74708     -2041.246 8        48.000
G27        12.000    21061312.225 7 110677952.14507      2068.779 7        47.750    21061311.836 8        48.250    21061315.802 8  86242561.69108      1612.033 8        48.250    21061315.713 7  86242565.69307      1612.084 7        45.500    21061313.240 8  82649125.42908      1544.888 8        48.750
R09         8.000    23420961.920 6 125066644.54206      3968.722 6        40.000    23420966.190 5  97274069.41705      3086.712 5        35.500    23420948.858 5  93906873.69605      2979.637 5        34.500
R15        11.000    20863854.635 7 111490089.71007     -3422.183 7        47.500    20863858.445 7  86714536.74607     -2661.724 7        46.250
R16         4.000    20001575.751 7 106844835.94207       805.499 7        46.500    20001581.274 7  83101564.53307       626.493 7        46.250    20001566.254 7  80196758.21707       604.581 7        46.750
R18        22.000    20171978.321 8 107679388.78808      1928.707 8        48.500    20171983.540 7  83750655.26107      1500.143 7        46.250
S21         5.000    38585032.524 6 202765731.24906         3.820 6        40.000
S36        28.000    38464157.237 6 202130543.45106        -0.550 6        41.250
> 2026 04 16 10 54 23.0000000  0 18
C12        21.000    22133345.207 8 115254135.24008      1326.477 8        48.750    22133342.864 8  89121800.84008      1025.677 8        52.250
C24        23.000    23387770.655 8 121786269.81708     -2130.029 8        48.250
C25         2.000    23761426.314 7 123731980.46507      1164.104 7        45.000
C26        30.000    26127355.967 7 136051974.16107     -3476.489 7        43.500
C34         7.000    23543540.118 7 122597388.43907      2394.425 7        43.250
E02        26.000    24336204.089 6 127887625.89806     -1924.091 6        37.500    24336211.114 6  95500508.85006     -1436.860 6        37.750    24336207.018 6  97991820.14106     -1474.205 6        38.000    24336208.753 6  96746164.00606     -1455.608 6        41.000
E34        29.000    24168407.057 8 127005834.62608      1662.329 8        49.500    24168411.323 7  94842040.42407      1241.350 7        46.750    24168407.321 7  97316163.95207      1273.705 7        45.750    24168409.033 8  96079099.69208      1257.512 8        49.250
G07        34.000    25260730.580 7 132746030.49807      1470.732 7        42.250    25260730.191 6        36.000    25260732.096 6 103438463.54106      1146.024 6        36.000    25260732.400 6 103438474.52206      1145.953 6        40.500
G08        14.000    23465194.791 6 123310437.95406      3223.708 6        37.500    23465194.304 5        31.500    23465200.174 5  96086067.84205      2511.981 5        31.500    23465199.933 6  96086078.84606      2512.060 6        39.750    23465202.401 8  92082497.68008      2407.341 8        50.500
G16         1.000    20389074.289 8 107145303.39508      -578.262 8        49.500    20389073.619 6        39.500    20389071.866 6  83489845.81006      -450.594 6        39.500
G26        13.000    21900369.554 7 115087216.19307     -2733.759 7        45.000    21900369.125 6        41.250    21900373.980 6  89678366.43006     -2130.193 6        41.250    21900374.101 7  89678376.42107     -2130.220 7        42.250    21900373.533 8  85941770.26108     -2041.463 8        48.250
G27        12.000    21060918.928 8 110675883.61008      2068.575 8        48.000    21060918.539 8        48.250    21060922.143 8  86240949.84608      1611.883 8        48.250    21060921.879 7  86240953.84907      1611.875 7        45.750    21060919.657 8  82647580.75008      1544.675 8        49.000
R09         8.000    23420218.794 6 125062676.16106      3968.490 6        40.250    23420222.653 5  97270982.89205      3086.706 5        35.500    23420205.715 5  93903894.02505      2979.717 5        34.250
R15        11.000    20864495.553 7 111493512.35207     -3422.743 7        47.750    20864498.969 7  86717198.79307     -2662.054 7        46.250
R16         4.000    20001425.169 7 106844030.99207       804.734 7        46.750    20001430.584 7  83100938.45907       625.986 7        46.500    20001415.573 7  80196154.02307       604.079 7        47.000
R18        22.000    20171616.911 8 107677460.41808      1928.405 8        48.750    20171622.300 7  83749155.42307      1499.847 7        46.250
S21         5.000    38585031.728 6 202765727.50506         4.001 6        40.000
S36        28.000    38464157.107 6 202130544.15406        -0.435 6        41.500
> 2026 04 16 10 54 24.0000000  0 18
C12        21.000    22133090.365 8 115252808.59008      1326.501 8        48.750    22133088.098 8  89120774.98608      1025.705 8        52.250
C24        23.000    23388179.630 8 121788399.68208     -2130.069 8        48.250
C25         2.000    23761202.612 7 123730816.25707      1164.032 7        45.000
C26        30.000    26128023.473 7 136055450.23507     -3475.954 7        43.500
C34         7.000    23543080.248 7 122594993.73307      2394.656 7        43.250
E02        26.000    24336571.344 6 127889549.85606     -1924.245 6        37.500    24336577.389 6  95501945.54806     -1436.788 6        37.750    24336573.293 6  97993294.34906     -1474.402 6        38.000    24336574.890 6  96747619.45906     -1455.665 6        40.750
